{"date": "2021-05-30", "data": [{"name": "Logan Square Farmers Market", "location": {"address": "Logan Blvd and Milwaukee Avenue, Chicago, IL", "latitude": 41.928433, "longitude": -87.704799}, "url": "http://www.logansquarefarmersmarket.org/", "datePatterns": ["every Sunday from 1000 to 1500, 2021-05-09 through 2021-10-18"], "startTime": "1000", "endTime": "1500", "startTimeReadable": "10:00 AM", "endTimeReadable": "03:00 PM"}, {"name": "Pilsen Community Market", "location": {"address": "18th and Halsted, Chicago, IL", "latitude": 41.858092, "longitude": -87.646637}, "url": "https://pilsencommunitymarket.weebly.com/", "datePatterns": ["every Sunday from 0900 to 1500, 2021-05-23 through 2021-10-31"], "startTime": "0900", "endTime": "1500", "startTimeReadable": "09:00 AM", "endTimeReadable": "03:00 PM"}, {"name": "Wicker Park Farmers Market", "url": "http://www.wickerparkbucktown.com/farmersmarket/farmers-market/", "datePatterns": ["every Sunday from 0800 to 1400, 2021-05-01 through 2021-10-31"], "location": {"address": "1425 N. Damen Avenue, Chicago, IL", "latitude": 41.908048, "longitude": -87.676738}, "startTime": "0800", "endTime": "1400", "startTimeReadable": "08:00 AM", "endTimeReadable": "02:00 PM"}, {"name": "Frankfort Country Market", "url": "https://www.frankfortil.org/residents/special_events/frankfort_country_market.php", "location": {"address": "Kansas and Oak St, Frankfort, IL", "latitude": 41.498456999999995, "longitude": -87.85114}, "datePatterns": ["every Sunday from 0900 to 1300, 2021-04-21 through 2021-10-24"], "startTime": "0900", "endTime": "1300", "startTimeReadable": "09:00 AM", "endTimeReadable": "01:00 PM"}, {"name": "Geneva French Market", "url": "https://www.geneva.il.us/calendar.aspx", "location": {"address": "Geneva Metra Station, Crescent Place, Geneva, IL", "latitude": 41.881446, "longitude": -88.310195}, "datePatterns": ["every Sunday from 0900 to 1400, 2021-05-02 through 2021-11-01"], "startTime": "0900", "endTime": "1400", "startTimeReadable": "09:00 AM", "endTimeReadable": "02:00 PM"}, {"name": "Glen Ellyn French Market", "url": "https://www.facebook.com/GlenEllynFrenchMarket/", "location": {"address": "449 N. Main Street, Glen Ellyn, IL", "latitude": 41.875687, "longitude": -88.0686595}, "datePatterns": ["every Sunday from 0800 to 1300, 2021-05-02 through 2021-10-31"], "startTime": "0800", "endTime": "1300", "startTimeReadable": "08:00 AM", "endTimeReadable": "01:00 PM"}]}