{"date": "2021-10-27", "data": [{"name": "Green City Market - Lincoln Park", "location": {"address": "1817 North Clark, Chicago, IL", "latitude": 41.9151897, "longitude": -87.6338762}, "url": "https://www.greencitymarket.org/markets/LincolnPark.asp", "datePatterns": ["every Wednesday from 0700 to 1300, 2021-05-01 through 2021-10-31", "every Saturday from 0700 to 1300, 2021-05-01 through 2021-10-31"], "startTime": "0700", "endTime": "1300", "startTimeReadable": "07:00 AM", "endTimeReadable": "01:00 PM"}, {"name": "Pullman City Market", "location": {"address": "11100 S. Cottage Grove Ave.", "latitude": 41.6929472, "longitude": -87.6122307}, "url": "https://www.chicagofarmersmarketfinder.com/", "datePatterns": ["every Wednesday from 0700 to 1300, July through October"], "startTime": "0700", "endTime": "1300", "startTimeReadable": "07:00 AM", "endTimeReadable": "01:00 PM"}, {"name": "Uptown Farmers Market", "url": "https://www.chicagomarket.coop/uptownfarmersmarket", "datePatterns": ["every Wednesday from 1430 to 1900, May through November"], "location": {"address": "4620 N. Broadway", "latitude": 41.9658371, "longitude": -87.6601193}, "startTime": "1430", "endTime": "1900", "startTimeReadable": "02:30 PM", "endTimeReadable": "07:00 PM"}, {"name": "Darien Farmers Market", "location": {"address": "7100 Claredon Hills Road, Darien, IL", "latitude": 41.7594159, "longitude": -87.9569396}, "url": "https://nfmd.org/il/darien/1009648/", "datePatterns": ["every Wednesday from 1500 to 1900, June through October"], "startTime": "1500", "endTime": "1900", "startTimeReadable": "03:00 PM", "endTimeReadable": "07:00 PM"}, {"name": "Elmhurst Farmers Market", "url": "http://elmhurstfarmersmarket.com/", "location": {"address": "York and Valette, Elmhurst, IL", "latitude": 41.883572, "longitude": 87.94001}, "datePatterns": ["every Wednesday from 0700 to 1300, June through October"], "startTime": "0700", "endTime": "1300", "startTimeReadable": "07:00 AM", "endTimeReadable": "01:00 PM"}, {"name": "Ravinia Farmers' Market", "location": {"address": "Dean Avenue and Roger Williams Avenue, Ravinia, IL", "latitude": 42.165465, "longitude": -87.781269}, "url": "https://www.raviniafarmersmarket.com/", "datePatterns": ["every Wednesday from 0700 to 1300, 2021-06-02 through 2021-10-27"], "startTime": "0700", "endTime": "1300", "startTimeReadable": "07:00 AM", "endTimeReadable": "01:00 PM"}]}