{"date": "2021-10-02", "data": [{"name": "Division Street Farmers Market", "url": "https://www.chicago.gov/city/en/depts/dca/supp_info/markets.html", "location": {"address": "100 W. Division St.", "latitude": 41.9039031, "longitude": -87.6336243}, "datePatterns": ["every Saturday from 0700 to 1200, 2021-05-15 through 2021-10-30"], "startTime": "0700", "endTime": "1200", "startTimeReadable": "07:00 AM", "endTimeReadable": "12:00 PM"}, {"name": "Green City Market - Lincoln Park", "location": {"address": "1817 North Clark, Chicago, IL", "latitude": 41.9151897, "longitude": -87.6338762}, "url": "https://www.greencitymarket.org/markets/LincolnPark.asp", "datePatterns": ["every Wednesday from 0700 to 1300, 2021-05-01 through 2021-10-31", "every Saturday from 0700 to 1300, 2021-05-01 through 2021-10-31"], "startTime": "0700", "endTime": "1300", "startTimeReadable": "07:00 AM", "endTimeReadable": "01:00 PM"}, {"name": "Horner Park Farmers Market", "url": "https://hornerpark.org/farmers-market/", "location": {"address": "2741 W. Montrose", "latitude": 41.960558, "location": -87.699899}, "datePatterns": ["every Saturday from 0900 to 1300, 2021-06-05 through 2021-10-02"], "startTime": "0900", "endTime": "1300", "startTimeReadable": "09:00 AM", "endTimeReadable": "01:00 PM"}, {"name": "Lincoln Park Farmers Market", "url": "https://www.chicago.gov/city/en/depts/dca/supp_info/markets.html", "location": {"address": "2001 N. Orchard St.", "latitude": 41.9193958, "longitude": -87.6477371}, "datePatterns": ["every Saturday from 0700 to 1300, May through November"], "startTime": "0700", "endTime": "1300", "startTimeReadable": "07:00 AM", "endTimeReadable": "01:00 PM"}, {"name": "Chicago Nettlehorst French Market", "location": {"address": "Broadway and Melrose, Chicago, IL", "latitude": 41.94113, "longitude": -87.644431}, "url": "https://www.bensidounusa.com/nettlehorst/", "datePatterns": ["every Saturday from 0800 to 1400, April through October"], "startTime": "0800", "endTime": "1400", "startTimeReadable": "08:00 AM", "endTimeReadable": "02:00 PM"}, {"name": "NorthCenter Farmers Market", "url": "https://www.northcenterchamber.com/northcenter-farmers-market", "location": {"address": "NorthCenter Town Square, 4100 N. Damen Ave.", "latitude": 41.9561235, "longitude": -87.6813363}, "datePatterns": ["every Saturday from 0800 to 1300, June through October"], "startTime": "0800", "endTime": "1300", "startTimeReadable": "08:00 AM", "endTimeReadable": "01:00 PM"}, {"name": "Plant Chicago Farmers Market", "location": {"address": "Davis Square Park", "latitude": 41.813024, "longitude": -87.6697209}, "url": "https://www.plantchicago.org/farmers-market", "datePatterns": ["every Saturday from 1100 to 1500, 2021-06-05 through 2021-11-13"], "startTime": "1100", "endTime": "1500", "startTimeReadable": "11:00 AM", "endTimeReadable": "03:00 PM"}, {"name": "61st Street Farmers Market", "location": {"address": "61st and Dorchester, Chicago, IL", "latitude": 41.784199, "longitude": -87.591431}, "url": "https://experimentalstation.org/market", "datePatterns": ["every Saturday from 0900 to 1400, 2021-05-15 through 2021-10-31"], "startTime": "0900", "endTime": "1400", "startTimeReadable": "09:00 AM", "endTimeReadable": "02:00 PM"}, {"name": "West Humboldt Park City Market", "url": "https://www.chicago.gov/city/en/depts/dca/supp_info/markets.html", "datePatterns": ["every Saturday from 1000 to 1400, 2021-06-05 through 2021-10-09"], "location": {"address": "3601 W. Chicago Ave.", "latitude": 41.8951117, "longitude": -87.7189308}, "startTime": "1000", "endTime": "1400", "startTimeReadable": "10:00 AM", "endTimeReadable": "02:00 PM"}, {"name": "Arlington Heights Farmers Market", "location": {"address": "Vail and Fremont, Arlington Heights, IL", "latitude": 42.087379999999996, "longitude": -87.984093}, "url": "https://www.ahfarmersmarket.org/", "datePatterns": ["every Saturday from 0800 to 1230, 2021-05-15 through 2021-10-16"], "startTime": "0800", "endTime": "1230", "startTimeReadable": "08:00 AM", "endTimeReadable": "12:30 PM"}, {"name": "Aurora Farmers Market", "location": {"address": "65 Water Street, Aurora, IL", "latitude": 41.7560751, "longitutde": -88.3174311}, "url": "https://www.aurora-il.org/1595/Aurora-Farmers-Market", "datePatterns": ["every Saturday from 0800 to 1200, 2021-06-12 through 2021-10-16"], "startTime": "0800", "endTime": "1200", "startTimeReadable": "08:00 AM", "endTimeReadable": "12:00 PM"}, {"name": "Batavia Farmers Market", "location": {"address": "River Street and Wilson, Batavia, IL", "latitude": 41.849998, "longitude": -88.305809}, "url": "https://downtownbatavia.com/farmers-market/", "datePatterns": ["every Saturday from 0800 to 1200, June through October"], "startTime": "0800", "endTime": "1200", "startTimeReadable": "08:00 AM", "endTimeReadable": "12:00 PM"}, {"name": "Brookfield Farmers Market", "location": {"address": "8820 Brookfield Avenue, Brookfield, IL", "latitude": 41.822942999999995, "longitude": -87.84082099999999}, "url": "https://brookfieldfarmers.com/", "datePatterns": ["every Saturday from 0800 to 1300, 2021-06-05 through 2021-10-16"], "startTime": "0800", "endTime": "1300", "startTimeReadable": "08:00 AM", "endTimeReadable": "01:00 PM"}, {"name": "Deerfield Farmers Market", "location": {"address": "Deerfield Metra Station", "latitude": 42.167339, "longitude": -87.849953}, "url": "http://www.deerfield.il.us/301/Farmers-Market", "datePatterns": ["every Saturday from 0700 to 1230, 2021-06-12 through 2021-10-09"], "startTime": "0700", "endTime": "1230", "startTimeReadable": "07:00 AM", "endTimeReadable": "12:30 PM"}, {"name": "Downers Grove Farmers Market", "url": "https://www.ymcachicago.org/indianboundary/blog/entry/Downtown-Downers-Grove-Market-2020", "location": {"name": "Downers Grove Metra, Burlington Avenue, Downers Grove, IL", "latitude": 41.795355, "longitude": -88.010345}, "datePatterns": ["every Saturday from 0700 to 1230, 2021-05-08 through 2021-10-16"], "startTime": "0700", "endTime": "1230", "startTimeReadable": "07:00 AM", "endTimeReadable": "12:30 PM"}, {"name": "Dundee Depot Market", "location": {"address": "319 N. River Street, East Dundee, IL", "latitude": 42.101177, "longitude": -88.274902}, "url": "https://www.facebook.com/Dundee-Depot-Market-and-Visitors-Center-113123312056926/", "datePatterns": ["every Saturday from 0800 to 1400, 2021-05-08 through 2021-10-31"], "startTime": "0800", "endTime": "1400", "startTimeReadable": "08:00 AM", "endTimeReadable": "02:00 PM"}, {"name": "Elk Grove Farmers Market", "url": "http://www.elkgrovefarmersmarket.com/", "location": {"address": "901 Wellington Avenue, Elk Grove Village, IL", "latitude": 42.002201, "longitude": -88.00872}, "datePatterns": ["every Saturday from 0730 to 1300, 2021-06-01 through 2021-10-15"], "startTime": "0730", "endTime": "1300", "startTimeReadable": "07:30 AM", "endTimeReadable": "01:00 PM"}, {"name": "Downtown Evanston Farmers Market", "url": "https://www.cityofevanston.org/residents/farmers-market", "location": {"address": "University Place and Oak Avenue, Evanston, IL", "latitude": 42.05106, "longitude": -87.68654599999999}, "datePatterns": ["every Saturday from 0730 to 1300, 2021-05-01 through 2021-11-05"], "startTime": "0730", "endTime": "1300", "startTimeReadable": "07:30 AM", "endTimeReadable": "01:00 PM"}, {"name": "Glenview Farmers Market", "url": "https://www.visitchicagonorthshore.com/Events/Details?e=3173", "datePatterns": ["every Saturday from 0800 to 1200, 2021-06-19 through 2021-10-16"], "location": {"address": "1510 Wagner Road, Glenview, IL", "latitude": 42.082192, "longitude": -87.781367}, "startTime": "0800", "endTime": "1200", "startTimeReadable": "08:00 AM", "endTimeReadable": "12:00 PM"}, {"name": "Grayslake Farmers Market", "url": "https://www.grayslakefarmersmarket.com/", "datePatterns": ["every Saturday from 1000 to 1400, 2021-04-10 through 2021-05-29", "every Wednesday from 1500 to 1900, 2021-06-02 through 2021-09-22", "every Saturday from 1000 to 1400, 2021-09-25 through 2021-12-11"], "location": {"address": "Whitney and Center Street, Grayslake, IL", "latitude": 42.3443252, "longitude": -88.0424573}, "startTime": "1000", "endTime": "1400", "startTimeReadable": "10:00 AM", "endTimeReadable": "02:00 PM"}, {"name": "Homewood Farmers market", "url": "https://www.village.homewood.il.us/exploration-events/events/farmers-markets", "location": {"address": "Martin Avenue between Ridge Road and Chestnut Road, Homewood, IL", "latitude": 41.5617302, "longitude": -87.6686618}, "datePatterns": ["every Saturday from 0800 to 1300, 2021-05-08 through 2021-10-09"], "startTime": "0800", "endTime": "1300", "startTimeReadable": "08:00 AM", "endTimeReadable": "01:00 PM"}, {"name": "Kankakee Farmers Market", "url": "https://www.downtownkankakee.com/farmers-market/", "datePatterns": ["every Saturday from 0800 to 1200, May through October"], "location": {"address": "Schuyler Ave. and Merchant St., Kankakee, IL", "latitude": 41.1189957, "longitude": -87.8663536}, "startTime": "0800", "endTime": "1200", "startTimeReadable": "08:00 AM", "endTimeReadable": "12:00 PM"}, {"name": "Lisle French Market", "location": {"address": "Burlington and Spencer, Lisle, IL", "latitude": 41.798611, "longitude": -88.07333299999999}, "url": "https://villageoflisle.org/228/French-Market-at-PrairieWalk-Pond", "datePatterns": ["every Saturday from 0800 to 1300, May through October"], "startTime": "0800", "endTime": "1300", "startTimeReadable": "08:00 AM", "endTimeReadable": "01:00 PM"}, {"name": "Morton Grove French Market", "url": "https://www.facebook.com/mortongrovefrenchmarket/", "location": {"address": "6250 West Dempster, Morton Grove, IL", "latitude": 42.0418428, "longitude": -87.7849871}, "datePatterns": ["every Saturday from 0800 to 1200, 2021-06-05 through 2021-10-23"], "startTime": "0800", "endTime": "1200", "startTimeReadable": "08:00 AM", "endTimeReadable": "12:00 PM"}, {"name": "Naperville Farmers Market", "url": "https://napervillefarmersmarket.com/", "location": {"address": "Fifth Avenue Station Parking Lot, Naperville, IL", "latitude": 41.779519, "longitude": -88.14595}, "datePatterns": ["every Saturday from 0700 to 1200, 2021-06-01 through 2021-11-01"], "startTime": "0700", "endTime": "1200", "startTimeReadable": "07:00 AM", "endTimeReadable": "12:00 PM"}, {"name": "Oak Park Farmers Market", "url": "https://www.oak-park.us/our-community/oak-park-farmers-market", "datePatterns": ["every Saturday from 0730 to 1300, 2021-05-22 through 2021-10-31"], "location": {"address": "460 Lake St, Oak Park, IL", "latitude": 41.888386, "longitude": -87.78683699999999}, "startTime": "0730", "endTime": "1300", "startTimeReadable": "07:30 AM", "endTimeReadable": "01:00 PM"}, {"name": "Palatine Market", "url": "https://www.palatine.il.us/663/Farmers-Market", "datePatterns": ["every Saturday from 0700 to 1300, 2021-05-01 through 2021-10-31"], "location": {"address": "Palatine Metra Station", "latitude": 42.113040999999996, "longitude": -88.047119}, "startTime": "0700", "endTime": "1300", "startTimeReadable": "07:00 AM", "endTimeReadable": "01:00 PM"}, {"name": "Park Forest Farmers Market", "url": "http://www.villageofparkforest.com/98/Farmers-Market", "datePatterns": ["every Saturday from 0700 to 1200, May through October"], "location": {"address": "271 Lakewood Blvd, Park Forest, IL", "latitude": 41.484496, "longitude": -87.681379999}, "startTime": "0700", "endTime": "1200", "startTimeReadable": "07:00 AM", "endTimeReadable": "12:00 PM"}, {"name": "Park Ridge Farmers Market", "url": "https://www.parkridgefarmersmarket.com/", "datePatterns": ["every Saturday from 0700 to 1300, 2021-05-29 through 2021-10-31"], "location": {"address": "Prairie and Garden Street, Park Ridge, IL", "latitude": 42.009418, "longitude": -87.83458}, "startTime": "0700", "endTime": "1300", "startTimeReadable": "07:00 AM", "endTimeReadable": "01:00 PM"}, {"name": "Wheaton French Market", "location": {"latitude": 41.864254, "longitude": -88.1065543, "address": "Reber Street and Liberty Drive, Wheaton, IL"}, "url": "https://www.wheaton.il.us/Calendar.aspx?EID=1546", "datePatterns": ["every Saturday from 0800 to 1400, 2021-04-10 through 2021-11-27"], "startTime": "0800", "endTime": "1400", "startTimeReadable": "08:00 AM", "endTimeReadable": "02:00 PM"}, {"name": "Wilmette French Market", "location": {"address": "722 Green Bay Road, Wilmette, IL", "latitude": 42.076826, "longitude": -87.709288}, "url": "https://www.wilmette.com/visitors/french-market/", "datePatterns": ["every Saturday from 0800 to 1300, 2021-04-17 through 2021-10-31"], "startTime": "0800", "endTime": "1300", "startTimeReadable": "08:00 AM", "endTimeReadable": "01:00 PM"}, {"name": "Woodstock Farmers Market", "url": "http://woodstockfarmersmarket.org/", "location": {"address": "Cass and Main Street, Woodstock, IL", "latitude": 42.31525, "longitude": -88.447403}, "datePatterns": ["every Saturday from 0800 to 1300, April through October", "every Tuesday from 0800 to 1300, May through September"], "startTime": "0800", "endTime": "1300", "startTimeReadable": "08:00 AM", "endTimeReadable": "01:00 PM"}]}