{"date": "2021-07-15", "data": [{"name": "Austin Farm Stand", "url": "https://www.chicagobotanic.org/urbanagriculture/markets", "location": {"address": "330 N. Lotus Ave.", "latitude": 41.8867011, "longitude": -87.7643312}, "datePatterns": ["every Thursday from 1000 to 1200, June through October"], "startTime": "1000", "endTime": "1200", "startTimeReadable": "10:00 AM", "endTimeReadable": "12:00 PM"}, {"name": "Austin Town Hall City Market", "location": {"latitude": 41.8883017, "longitude": -87.7679901, "address": "5610 West Lake Street"}, "url": "https://www.chicago.gov/city/en/depts/dca/supp_info/markets.html", "datePatterns": ["every Thursday from 1300 to 1800, 2021-06-10 through 2021-09-30"], "startTime": "1300", "endTime": "1800", "startTimeReadable": "01:00 PM", "endTimeReadable": "06:00 PM"}, {"name": "Daley Plaza City Market", "url": "https://www.chicago.gov/city/en/depts/dca/supp_info/markets.html", "location": {"address": "50 West Washington", "latitude": 41.8840376, "longitude": -87.6323175}, "datePatterns": ["every Thursday from 0700 to 1400, 2021-05-27 through 2021-09-30"], "startTime": "0700", "endTime": "1400", "startTimeReadable": "07:00 AM", "endTimeReadable": "02:00 PM"}, {"name": "Lincoln Square Farmers Market", "location": {"address": "Lincoln and Leland, Chicago, IL", "latitude": 41.96687, "longitude": -87.687399}, "url": "http://www.lincolnsquare.org/farmers-market", "datePatterns": ["every Thursday from 1500 to 1900, 2021-05-01 through 2021-10-31"], "startTime": "1500", "endTime": "1900", "startTimeReadable": "03:00 PM", "endTimeReadable": "07:00 PM"}, {"name": "Low-Line Farmers Market", "location": {"address": "3400 N. Southport Ave.", "latitude": 41.9435859, "longitude": -87.6663511}, "url": "https://www.chicago.gov/city/en/depts/dca/supp_info/markets.html", "datePatterns": ["every Thursday from 1530 to 1930, June through August", "every Thursday from 1500 to 1900, September through October"], "startTime": "1530", "endTime": "1930", "startTimeReadable": "03:30 PM", "endTimeReadable": "07:30 PM"}, {"name": "South Loop Prairie District", "location": {"address": "1936 S. Michigan Avenue", "latitude": 41.8557349, "longitude": -87.6265801}, "url": "http://www.southloopfarmersmarket.com/", "datePatterns": ["every Thursday from 1600 to 2000, 2021-06-17 through 2021-09-30"], "startTime": "1600", "endTime": "2000", "startTimeReadable": "04:00 PM", "endTimeReadable": "08:00 PM"}, {"name": "Barrington Farmers Market", "location": {"address": "Park and Cook Street, Barrington, IL", "latitude": 42.1526391, "longitude": -88.1355781}, "url": "https://barringtonfarmersmarket.com/", "datePatterns": ["every Thursday from 1500 to 1900, 2021-06-17 through 2021-10-21"], "startTime": "1500", "endTime": "1900", "startTimeReadable": "03:00 PM", "endTimeReadable": "07:00 PM"}, {"name": "Lagrange Farmers Market", "url": "https://www.facebook.com/lagrangefarmersmarket", "location": {"address": "La Grange Road and Cossitt Ave, LaGrange, IL", "latitude": 41.81237, "longitude": -87.86953}, "datePatterns": ["every Thursday from 0700 to 1300, May through October"], "startTime": "0700", "endTime": "1300", "startTimeReadable": "07:00 AM", "endTimeReadable": "01:00 PM"}, {"name": "Libertyville Farmers Market", "location": {"address": "120 West Church Street, Libertyville, IL", "latitude": 42.2868, "longitude": -87.954875}, "url": "http://libertyvillefarmersmarket.org/", "datePatterns": ["every Thursday from 0700 to 1300, 2021-06-03 through 2021-10-21"], "startTime": "0700", "endTime": "1300", "startTimeReadable": "07:00 AM", "endTimeReadable": "01:00 PM"}, {"name": "Western Springs Farmers Market", "location": {"latitude": 41.80923, "longitude": -87.90153099999999}, "datePatterns": ["every Thursday from 0700 to 1400, May through October"], "startTime": "0700", "endTime": "1400", "startTimeReadable": "07:00 AM", "endTimeReadable": "02:00 PM"}]}